{"node":{"locationHotelVo":[{"addressObj":{"address_string":"Bur Dubai, Al.Mankhool Road, Bank Street PO BOX 9168"},"seeAllPhotos":"http://0.omg.io/wego/image/upload/w_200,h_200,c_fill/v1428243202/hotels/85089/11621225.jpg","name":"Golden Sands Hotel Apartments","longitude":"55.29472222","latitude":"25.25166667","rating":"4.0","roomTypeRentMap":{"Standard":"AED 476","Delux":"AED 872"}},{"addressObj":{"address_string":"46th St. Al Mamzar"},"seeAllPhotos":"http://0.omg.io/wego/image/upload/w_200,h_200,c_fill/v1397016067/hotels/912589/12107951.jpg","name":"Moevenpick The Square Dubai","longitude":"55.35471","latitude":"25.29086","rating":"5.0","roomTypeRentMap":{"Standard":"AED 476","Delux":"AED 872"}},{"addressObj":{"address_string":"Adjacent to Ibn Battuta Mall"},"seeAllPhotos":"http://1.omg.io/wego/image/upload/w_200,h_200,c_fill/v1428237107/hotels/653657/2562052.jpg","name":"Moevenpick Ibn Battuta Gate Hotel Dubai","longitude":"55.11592","latitude":"25.04144","rating":"5.0","roomTypeRentMap":{"Standard":"AED 476","Delux":"AED 872"}},{"addressObj":{"address_string":"Street No.35"},"seeAllPhotos":"http://1.omg.io/wego/image/upload/w_200,h_200,c_fill/v1395045201/hotels/790246/11781549.jpg","name":"Down Town Dubai Hotel Apartment","longitude":"55.32739","latitude":"25.26913","rating":"4.0","roomTypeRentMap":{"Standard":"AED 476","Delux":"AED 872"}},{"addressObj":{"address_string":"Atlantis The Palm"},"seeAllPhotos":"http://1.omg.io/wego/image/upload/w_200,h_200,c_fill/v1428241020/hotels/85205/3051930.jpg","name":"Atlantis Palm Jumeirah","longitude":"55.11651","latitude":"25.13078","rating":"5.0","roomTypeRentMap":{"Standard":"AED 476","Delux":"AED 872"}},{"addressObj":{"address_string":"Jumeirah Beach Residence  \n      "},"seeAllPhotos":"http://1.omg.io/wego/image/upload/w_200,h_200,c_fill/v1428240849/hotels/85334/3257361.jpg","name":"Mï¿½venpick Hotel Jumeirah Beach","longitude":"55.13652","latitude":"25.08047","rating":"5.0","roomTypeRentMap":{"Standard":"AED 476","Delux":"AED 872"}},{"addressObj":{"address_string":"18th Street"},"seeAllPhotos":"http://1.omg.io/wego/image/upload/w_200,h_200,c_fill/v1397016006/hotels/580067/6078547.jpg","name":"London Crown 2 Hotel Apartment","longitude":"55.29954","latitude":"25.2545","rating":"3.0","roomTypeRentMap":{"Standard":"AED 476","Delux":"AED 872"}},{"addressObj":{"address_string":"PO Box 7978 "},"seeAllPhotos":"http://0.omg.io/wego/image/upload/w_200,h_200,c_fill/v1418700515/hotels/85435/1352965.jpg","name":"Grand Hyatt Dubai","longitude":"55.327845","latitude":"25.227887","rating":"5.0","roomTypeRentMap":{"Standard":"AED 476","Delux":"AED 872"}},{"addressObj":{"address_string":"19B Street"},"seeAllPhotos":"http://0.omg.io/wego/image/upload/w_200,h_200,c_fill/v1428235793/hotels/85318/2640564.jpg","name":"London Creek Hotel Apartments","longitude":"55.29786214","latitude":"25.24855299","rating":"3.0","roomTypeRentMap":{"Standard":"AED 476","Delux":"AED 872"}}]}}